{
    "businesses": [
      {
        "name": "Bay Shore Inn",
        "address": "53 West Spruce Street, Sturgeon Bay, WI 54235",
        "phonenum": "1-888-481-1935",
        "hours": "Sun-Sat 8am-10pm",
        "website": "https://bayshoreinn.net/",
        "imageurl": "images/BayShoreInn-100thAnniversaryLogo-TextBased-RGB.png",
        "membership": "Silver"
      },
      {
        "name": "JR Vacation Rentals",
        "address": "4205 Bay Shore Drive Sturgeon Bay, WI 54235-9704",
        "phonenum": "(920) 743-4551",
        "hours": "Monday, Thursday, Friday: 9 A.M. - 3 P.M.",
        "website": "https://www.jrvacationrentals.com/",
        "imageurl": "images/jrvacay.jpg",
        "membership": "Gold"

      },
      {
        "name": "Andropolis Waterfront Cottages",
        "address": "4309 Bay Shore Dr, Sturgeon Bay, WI 54235",
        "phonenum": "(920) 724-1073",
        "hours": "Monday, Thursday, Friday: 9 A.M. - 3 P.M.",
        "website": "https://doorcountywaterfrontcottages.com/",
        "imageurl": "images/andropolis.webp",
        "membership": "Gold"
      },
      {
        "name": "Potawatomie State Park",
        "address": "3740 Park Dr, Sturgeon Bay, WI 54235",
        "phonenum": "(920) 746-2890",
        "hours": "6 A.M. to 11 P.M. year-round",
        "website": "https://dnr.wisconsin.gov/topic/parks",
        "imageurl": "images/dnr-circle-logo-txt.svg.svg",
        "membership": "Nonprofit"
      },
      {
        "name": "Door County Maritime Museum",
        "address": "120 North Madison Avenue Sturgeon Bay, WI 54235",
        "phonenum": "(920) 743-5958",
        "hours": "10 A.M. to 4 P.M. year-round",
        "website": "https://www.dcmm.org/",
        "imageurl": "images/museum.jpg",
        "membership": "Nonprofit"
      },
      {
        "name": "Waterfront Mary's Bar and Grill",
        "address": "3662 N. Duluth Avenue Sturgeon Bay, WI 54235",
        "phonenum": "(920) 743-3690",
        "hours": "11 A.M. to 9 P.M. 7 days a week",
        "website": "http://waterfrontmarysbarandgrill.com/",
        "imageurl": "images/waterfront.png",
        "membership": "Bronze"
      },
      {
        "name": "Renards Artisan Cheese and Bistro",
        "address": "59 S Madison Ave. Sturgeon Bay, WI",
        "phonenum": "(920) 818-0493",
        "hours": "8 A.M. - 5 P.M. Mon.-Fri., Weekends 9 A.M. - 4 P.M.",
        "website": "https://www.renardscheese.com/",
        "imageurl": "images/renards.jpg",
        "membership": "Gold"
      },
      {
        "name": "G&J Glassworks",
        "address": "2189 Country Road Sturgeon Bay, WI 54235",
        "phonenum": "(920) 825-7272",
        "hours": "8 A.M. - 5 P.M. Tues.-Fri., Weekends 9 A.M. - 7 P.M.",
        "website": "http://www.gjglassworks.com/",
        "imageurl": "images/glass.jpg",
        "membership": "Bronze"
      },
      {
        "name": "Fincantieri Marine Group: Bay Shipbuilding",
        "address": "605 N 3rd Avenue Sturgeon Bay, WI 54235",
        "phonenum": "(920) 743-5524",
        "hours": "8 A.M. - 5 P.M. Mon.-Fri., Weekends 9 A.M. - 4 P.M.",
        "website": "https://fincantierimarinegroup.com/about-us/us-shipyards/bay-shipbuilding/",
        "imageurl": "images/ship.jpg",
        "membership": "Bronze"
      }
     
    ]
  }